{"type":"FeatureCollection","features":[{"type":"Feature","properties":{"descriptiongb":"Usage Fee: free of charge; Tips are voluntary.; ","cardnamegb":"Biergarten Rathenauplatz","zipcode":50674,"type":"HappyToilet Köln","start":"2015-04-01","phone":"Startdaten","cardname":"Biergarten Rathenauplatz","openinggb":"Opened during summer season from April to September when the weather is nice.","street":"Rathenauplatz","image":"","opening":"Geöffnet in der Sommersaison von April bis September bei schönem Wetter.","district":"Ehrenfeld","stop":"2015-09-30","description":"Nutzungsbebühr: Kostenlos;Ein Trinkgeld ist freiwillig.; ","city":"Köln","infrastructure":"3,4,7,11","area":"Neustadt-Süd","name":"Biergarten Rathenauplatz"},"geometry":{"type":"Point","coordinates":[6.935809,50.931407]},"id":"1005483"},{"type":"Feature","properties":{"descriptiongb":"Usage Fee: free of charge; ","cardnamegb":"Claudius Therme","zipcode":50679,"type":"HappyToilet Köln","start":"","phone":"Startdaten","cardname":"Claudius Therme","openinggb":"Mon - Sun:9.00 a.m. to 00.00 a.m.","street":"Sachsenbergstraße 1","image":"","opening":"Mo - So: 9.00 - 24.00 Uhr","district":"Ehrenfeld","stop":"","description":"Nutzungsgebühr: Kostenlos.; ","city":"Köln","infrastructure":"1,7,11","area":"Deutz","name":"Claudius Therme GmbH & Co. KG"},"geometry":{"type":"Point","coordinates":[6.980567,50.950646]},"id":"1005482"},{"type":"Feature","properties":{"descriptiongb":"Usage Fee: free of charge; ","cardnamegb":"Kolpinghotel at Römerturm","zipcode":50677,"type":"HappyToilet Köln","start":"","phone":"Startdaten","cardname":"Kolpinghotel at Römerturm","openinggb":"Daily from 12.00 p.m. to  12.00 a.m.","street":"St.-Apern-Straße 32","image":"","opening":"Täglich 12.00 - 24.00 Uhr","district":"Innenstadt","stop":"","description":"Nutzungsgebühr: Kostenlos; ","city":"Köln","infrastructure":"1,4,7,11","area":"Altstadt-Nord","name":"Kolpinghotel am Römerturm"},"geometry":{"type":"Point","coordinates":[6.946174,50.939739]},"id":"1005481"},{"type":"Feature","properties":{"descriptiongb":"Usage Fee: free of charge;Toilets are only available during summer season from april to the end of september.; ","cardnamegb":"Poller Fischerhaus","zipcode":51105,"type":"HappyToilet Köln","start":"2015-04-01","phone":"Startdaten","cardname":"Poller Fischerhaus","openinggb":"Daily from 12.00 p.m. to  12.00 a.m.","street":"Weidenweg 46","image":"http://www.awbkoeln.de/typo3temp/_processed_/csm_HTK_Poller_Fischerhaus_6f794e1ab5.jpg","opening":"Täglich 12.00 - 24.00 Uhr","district":"Porz","stop":"2015-09-30","description":"Nutzungsgebühr: Kostenlos;Toiletten stehen nur während der Saison von April bis einschließlich September zur Verfügung.; ","city":"Köln","infrastructure":"1,3,4,7,11","area":"Poll","name":"Poller Fischerhaus"},"geometry":{"type":"Point","coordinates":[6.992216,50.903134]},"id":"1005480"},{"type":"Feature","properties":{"descriptiongb":"Usage Fee: free of charge;In case of maintnance, custormers will be charged €0.50.; ","cardnamegb":"Reissdorf am Hahnentor","zipcode":50677,"type":"HappyToilet Köln","start":"","phone":"Startdaten","cardname":"Reissdorf am Hahnentor","openinggb":"Mon - Thu: 11.30 a.m. to 11.00 p.m.;Fri - Sun: 12.00 p.m. to 11 p.m.","street":"Hahnenstraße 24","image":"http://www.awbkoeln.de/typo3temp/_processed_/csm_HTK_Reissdorf_Hahnentor_41d1a6ee6d.jpg","opening":"Mo - Do: 11.30 - 23.00 Uhr;Fr. - So: 12.00 - 23.00 Uhr","district":"Innenstadt","stop":"","description":"Nutzungsgebühr: Kostenlos;Wenn eine WC-Dame anwesend ist, wird eine Nutzungsgebühr von 0,50 € erhoben.; ","city":"Köln","infrastructure":"4,7,11","area":"Altstadt-Nord","name":"Reissdorf am Hahnentor"},"geometry":{"type":"Point","coordinates":[6.940863,50.936382]},"id":"1005479"},{"type":"Feature","properties":{"descriptiongb":"Usage Fee: free of charge; ","cardnamegb":"CrossFit Cologne","zipcode":50825,"type":"HappyToilet Köln","start":"","phone":"Startdaten","cardname":"CrossFit Cologne","openinggb":"Mon + Wed: 6.30 a.m. to 10.30 p.m., Tue + Thu: 8.30 a.m. to 22.30 p.m., Fri: 6.30 a.m. to 9.30 p.m.;Sat: 9.30 a.m. to 5.30 p.m., Sun: 9.30 a.m. to 12.00 a.m.","street":"Maarweg 132","image":"http://www.awbkoeln.de/typo3temp/_processed_/csm_HTK_Cross_Fit_Cologne_698858febf.jpg","opening":"Mo +  Mi: 6.30 - 22.30 Uhr, Di + Do: 8.30 - 22.30 Uhr, Fr: 6.30 - 21.30;Sa: 9.30 - 17.30 Uhr, So: 9.30 - 15.30 Uhr","district":"Ehrenfeld","stop":"","description":"Nutzungsgebühr: Kostenlos; ","city":"Köln","infrastructure":"1,3,7,11","area":"Ehrenfeld","name":"CrossFit Cologne GmbH"},"geometry":{"type":"Point","coordinates":[6.898611,50.943814]},"id":"1005478"},{"type":"Feature","properties":{"descriptiongb":"Usage Fee: €0.50;Urinal is free of charge.; ","cardnamegb":"City toilet","zipcode":50674,"type":"City-Toilette","start":"","phone":"Startdaten","cardname":"City-Toilette","openinggb":"Mon - Sun: 24 hours","street":"Zülpicher Platz","image":"http://www.awbkoeln.de/typo3temp/_processed_/csm_2015_CWC_Zuelpicher_Platz_5dbf6ff92c.jpg","opening":"Mo - So: durchgehend geöffnet","district":"Innenstadt","stop":"","description":"Nutzungsgebühr: 0,50 €;Das Urinal ist kostenlos nutzbar.; ","city":"Köln","infrastructure":"1,2,3,4,5,9","area":"Altstadt-Süd","name":"City-Toilette"},"geometry":{"type":"Point","coordinates":[6.939421,50.930008]},"id":"1005433"},{"type":"Feature","properties":{"descriptiongb":"Usage Fee: €0.50;Urinal is free of charge.; ","cardnamegb":"City toilet","zipcode":50674,"type":"City-Toilette","start":"","phone":"Startdaten","cardname":"City-Toilette","openinggb":"Mon - Sun: 24 hours","street":"Brüsseler Platz","image":"http://www.awbkoeln.de/typo3temp/_processed_/csm_2015_CWC_Bruesseler_Platz_214f3eef83.jpg","opening":"Mo - So: durchgehend geöffnet","district":"Innenstadt","stop":"","description":"Nutzungsgebühr: 0,50 €;Das Urinal ist kostenlos nutzbar.; ","city":"Köln","infrastructure":"1,2,3,4,5,9","area":"Altstadt-Nord","name":"City-Toilette"},"geometry":{"type":"Point","coordinates":[6.934572,50.938306]},"id":"1005431"},{"type":"Feature","properties":{"descriptiongb":"Usage fee: free of Charge; The toilet cabin of this mobile toilet is also accessible to people in wheelchairs or with walking disabilities.; ","cardnamegb":"Rodenkirchener Riviera East","zipcode":50996,"type":"Toilette in Grünanlagen","start":"2015-05-01","phone":"","cardname":"Rodenkirchener Riviera Ost","openinggb":"Mon - Sun: 8 a.m. to 10 p.m.","street":"Uferstraße 41","image":"http://www.awbkoeln.de/typo3temp/_processed_/csm_2015_Riviera_Ost_c832cdfed4.jpg","opening":"Mo - So: 08.00 - 22.00 Uhr","district":"Rodenkirchen","stop":"2015-09-15","description":"Nutzungsgebühr: Kostenlos;Die Toilettenkabine der Mobiltoilette sind behindertengerecht und für gehbehinderte Personen nutzbar.; ","city":"Köln","infrastructure":"1,8,11","area":"Rodenkirchen","name":"Rodenkirchener Riviera Ost"},"geometry":{"type":"Point","coordinates":[7.011247,50.892059]},"id":"1005428"},{"type":"Feature","properties":{"descriptiongb":"Usage fee: free of Charge; The toilet cabin of this mobile toilet is also accessible to people in wheelchairs or with walking disabilities.; ","cardnamegb":"Rodenkirchener Riviera West","zipcode":50996,"type":"Toilette in Grünanlagen","start":"2015-05-01","phone":"","cardname":"Rodenkirchener Riviera West","openinggb":"Mon - Sun: 8 a.m. to 10 p.m.","street":"Uferstraße 24","image":"http://www.awbkoeln.de/typo3temp/_processed_/csm_2015_Riviera_West_c08c8f20b9.jpg","opening":"Mo - So: 08.00 - 22.00 Uhr","district":"Rodenkirchen","stop":"2015-09-15","description":"Nutzungsgebühr: Kostenlos;Die Toilettenkabine der Mobiltoilette sind behindertengerecht und für gehbehinderte Personen nutzbar.; ","city":"Köln","infrastructure":"1,8,11","area":"Rodenkirchen","name":"Rodenkirchener Riviera West"},"geometry":{"type":"Point","coordinates":[7.004906,50.892519]},"id":"1005427"},{"type":"Feature","properties":{"descriptiongb":"Usage fee: free of Charge; The toilet cabin of this mobile toilet is also accessible to people in wheelchairs or with walking disabilities.; ","cardnamegb":"Poller Wiesen South","zipcode":50679,"type":"Toilette in Grünanlagen","start":"2015-05-01","phone":"","cardname":"Poller Wiesen Süd","openinggb":"Mon - Sun: 8 a.m. to 10 p.m.","street":"Alfred-Schütte Allee 20","image":"http://www.awbkoeln.de/typo3temp/_processed_/csm_2015_Poller_Wiesen_Sued_1baa1aeee3.jpg","opening":"Mo - So: 08.00 - 22.00 Uhr","district":"Innenstadt","stop":"2015-09-15","description":"Nutzungsgebühr: Kostenlos;Die Toilettenkabine der Mobiltoilette sind behindertengerecht und für gehbehinderte Personen nutzbar.; ","city":"Köln","infrastructure":"1,8,11","area":"Deutz","name":"Poller Wiesen Süd"},"geometry":{"type":"Point","coordinates":[6.977655,50.919203]},"id":"1005426"},{"type":"Feature","properties":{"descriptiongb":"Usage fee: free of Charge; The toilet cabin of this mobile toilet is also accessible to people in wheelchairs or with walking disabilities.; ","cardnamegb":"Poller Wiesen North","zipcode":50679,"type":"Toilette in Grünanlagen","start":"2015-05-01","phone":"","cardname":"Poller Wiesen Nord","openinggb":"Mon - Sun: 8 a.m. to 10 p.m.","street":"Alfred-Schütte Allee 2","image":"http://www.awbkoeln.de/typo3temp/_processed_/csm_2015_Poller_Wiesen_Drehbruecke_79866937a3.jpg","opening":"Mo - So: 08.00 - 22.00 Uhr","district":"Innenstadt","stop":"2015-09-15","description":"Nutzungsgebühr: Kostenlos;Die Toilettenkabine der Mobiltoilette sind behindertengerecht und für gehbehinderte Personen nutzbar.; ","city":"Köln","infrastructure":"1,8,11","area":"Deutz","name":"Poller Wiesen Nord"},"geometry":{"type":"Point","coordinates":[6.972634,50.926886]},"id":"1005425"},{"type":"Feature","properties":{"descriptiongb":"Usage fee: free of Charge; The toilet cabin of this mobile toilet is also accessible to people in wheelchairs or with walking disabilities.; ","cardnamegb":"Merheimer Heide playground","zipcode":51103,"type":"Toilette in Grünanlagen","start":"2015-05-01","phone":"","cardname":"Merheimer Heide Spielplatz","openinggb":"Mon - Sun: 8 a.m. to 10 p.m.","street":"Merheimer Heideweg","image":"http://www.awbkoeln.de/typo3temp/_processed_/csm_2015_Merheimer_Heide_Spielplatz_9ac09f0692.jpg","opening":"Mo - So: 08.00 - 22.00 Uhr","district":"Kalk","stop":"2015-09-15","description":"Nutzungsgebühr: Kostenlos;Die Toilettenkabine der Mobiltoilette sind behindertengerecht und für gehbehinderte Personen nutzbar.; ","city":"Köln","infrastructure":"1,8,11","area":"Merheim","name":"Merheimer Heide Spielplatz"},"geometry":{"type":"Point","coordinates":[7.033788,50.945783]},"id":"1005424"},{"type":"Feature","properties":{"descriptiongb":"Usage fee: €0.50; ","cardnamegb":"Hohenzollern Bridge (mobile toilet)","zipcode":50679,"type":"Toilette in Grünanlagen","start":"","phone":"","cardname":"Hohenzollernbrücke (Mobile Toilette)","openinggb":"Mon - Fri: 11 a.m. to 5 p.m.;Sat - Sun: 11 a.m. to 6 p.m.;Christmas Eve (24.12.): 8 a.m. to 4 p.m.;New Year (1.1.): 10 a.m. to 6 p.m.","street":"Kennedyufer","image":"http://www.awbkoeln.de/typo3temp/_processed_/csm_2015_Hohenzollernbruecke_80224841bf.jpg","opening":"Mo - Fr: 11.00 - 17.00 Uhr;Sa - So: 11:00 - 18:00;Heiligabend (24.12): 8.00 - 16.00 Uhr;Neujahr (1.1.): 10.00 - 18.00 Uhr","district":"Innenstadt","stop":"","description":"Nutzungsgebühr: 0,50 €; ","city":"Köln","infrastructure":"1,3,4,8,9","area":"Deutz","name":"Hohenzollernbrücke (Mobile Toilette )"},"geometry":{"type":"Point","coordinates":[6.969362,50.941951]},"id":"1005477"},{"type":"Feature","properties":{"descriptiongb":"Usage Fee: free of charge; ","cardnamegb":"District Town Hall Mülheim","zipcode":51065,"type":"Toilette in öffentlichen Einrichtungen","start":"","phone":"Startdaten","cardname":"Bezirksrathaus Mülheim","openinggb":"During opening hours of the destrict town hall.","street":"Wiener Platz  2 - 4","image":"http://www.stadt-koeln.de/mediaasset/bilder/freizeit/toiletten/93.jpeg","opening":"Während der Öffnungszeiten des Bezirksrathauses.","district":"Mülheim","stop":"","description":"Nutzungsgebühr: Kostenlos; ","city":"Köln","infrastructure":"1,6,11","area":"Mülheim","name":"Bezirksrathaus Mülheim"},"geometry":{"type":"Point","coordinates":[7.004526,50.961319]},"id":"1005415"},{"type":"Feature","properties":{"descriptiongb":"Usage Fee: free of charge; ","cardnamegb":"Cemetary Dellbrück","zipcode":51069,"type":"Friedhofstoilette","start":"","phone":"Startdaten","cardname":"Friedhof Dellbrück","openinggb":"During opening times of the cemetary.","street":"Thurner Straße  6","image":"http://www.stadt-koeln.de/mediaasset/bilder/freizeit/toiletten/100.jpeg","opening":"Während der Öffnungszeiten des Friedhofs.","district":"Mülheim","stop":"","description":"Nutzungsgebühr: Kostenlos; ","city":"Köln","infrastructure":"8,11","area":"Dellbrück","name":"Friedhof Dellbrück"},"geometry":{"type":"Point","coordinates":[7.07736,50.974648]},"id":"1005414"},{"type":"Feature","properties":{"descriptiongb":"Usage Fee: free of charge; ","cardnamegb":"Cemetary Stammheim","zipcode":51061,"type":"Friedhofstoilette","start":"","phone":"Startdaten","cardname":"Friedhof Stammheim","openinggb":"During opening times of the cemetary.","street":"Stammheimer Ring  111","image":"http://www.stadt-koeln.de/mediaasset/bilder/freizeit/toiletten/99.jpeg","opening":"Während der Öffnungszeiten des Friedhofs.","district":"Mülheim","stop":"","description":"Nutzungsgebühr: Kostenlos; ","city":"Köln","infrastructure":"8,11","area":"Stammheim","name":"Friedhof Stammheim"},"geometry":{"type":"Point","coordinates":[6.991358,50.9883]},"id":"1005413"},{"type":"Feature","properties":{"descriptiongb":"Usage Fee: free of charge; ","cardnamegb":"Cemetary Flittard","zipcode":51061,"type":"Friedhofstoilette","start":"","phone":"Startdaten","cardname":"Friedhof Flittard","openinggb":"During opening times of the cemetary.","street":"Hubertusstraße  8","image":"http://www.stadt-koeln.de/mediaasset/bilder/freizeit/toiletten/98.jpeg","opening":"Während der Öffnungszeiten des Friedhofs.","district":"Mülheim","stop":"","description":"Nutzungsgebühr: Kostenlos; ","city":"Köln","infrastructure":"8,11","area":"Flittard","name":"Friedhof Flittard"},"geometry":{"type":"Point","coordinates":[6.975536,51.000496]},"id":"1005412"},{"type":"Feature","properties":{"descriptiongb":"Usage Fee: free of charge; ","cardnamegb":"Cemetary Dünnwald","zipcode":51069,"type":"Friedhofstoilette","start":"","phone":"Startdaten","cardname":"Friedhof Dünnwald","openinggb":"During opening times of the cemetary.","street":"Goffineweg","image":"http://www.stadt-koeln.de/mediaasset/bilder/freizeit/toiletten/96.jpeg","opening":"Während der Öffnungszeiten des Friedhofs.","district":"Mülheim","stop":"","description":"Nutzungsgebühr: Kostenlos; ","city":"Köln","infrastructure":"8,11","area":"Dünnwald","name":"Friedhof Dünnwald"},"geometry":{"type":"Point","coordinates":[7.028554,51.007259]},"id":"1005411"},{"type":"Feature","properties":{"descriptiongb":"Usage Fee: free of charge; ","cardnamegb":"Cologne East Cemetary","zipcode":51069,"type":"Friedhofstoilette","start":"","phone":"Startdaten","cardname":"Ostfriedhof","openinggb":"During opening times of the cemetary.","street":"Dellbrücker Mauspfad 125-129","image":"http://www.stadt-koeln.de/mediaasset/bilder/freizeit/toiletten/95.jpeg","opening":"Während der Öffnungszeiten des Friedhofs.","district":"Mülheim","stop":"","description":"Nutzungsgebühr: Kostenlos; ","city":"Köln","infrastructure":"1,8,11","area":"Dellbrück","name":"Ostfriedhof"},"geometry":{"type":"Point","coordinates":[7.072811,50.964432]},"id":"1005410"},{"type":"Feature","properties":{"descriptiongb":"Usage Fee: free of charge; ","cardnamegb":"Cemetary Holweide","zipcode":51067,"type":"Friedhofstoilette","start":"","phone":"Startdaten","cardname":"Friedhof Holweide","openinggb":"During opening times of the cemetary.","street":"Burgwiesenstraße  93","image":"http://www.stadt-koeln.de/mediaasset/bilder/freizeit/toiletten/94.jpeg","opening":"Während der Öffnungszeiten des Friedhofs.","district":"Mülheim","stop":"","description":"Nutzungsgebühr: Kostenlos; ","city":"Köln","infrastructure":"8,11","area":"Holweide","name":"Friedhof Holweide"},"geometry":{"type":"Point","coordinates":[7.044167,50.965122]},"id":"1005409"},{"type":"Feature","properties":{"descriptiongb":"Usage Fee: free of charge; ","cardnamegb":"Community Centre Kalk","zipcode":51103,"type":"Toilette in öffentlichen Einrichtungen","start":"","phone":"Startdaten","cardname":"Bürgerhaus Kalk","openinggb":"Mon - Thu: 9 a.m. to 6 p.m., Fri: 9 a.m. to 2 p.m.","street":"Kalk-Mülheimer-Str. 58","image":"","opening":"Mo - Do: 9.00 - 18.00 Uhr, Fr: 9.00 - 14.00 Uhr","district":"Kalk","stop":"","description":"Nutzungsgebühr: Kostenlos; ","city":"Köln","infrastructure":"6,11","area":"Kalk","name":"Bürgerhaus Kalk"},"geometry":{"type":"Point","coordinates":[7.00142,50.939991]},"id":"1005408"},{"type":"Feature","properties":{"descriptiongb":"Usage Fee: free of charge; ","cardnamegb":"Kalk Karree Cologne","zipcode":51105,"type":"Toilette in öffentlichen Einrichtungen","start":"","phone":"Startdaten","cardname":"Kalk Karree Köln","openinggb":"During opening hours of Kalk Karree.","street":"Ottmar-Pohl-Platz  3","image":"http://www.stadt-koeln.de/mediaasset/bilder/freizeit/toiletten/87-1.jpeg","opening":"Während der Öffnungszeiten des Kalk Karrees.","district":"Kalk","stop":"","description":"Nutzungsgebühr: Kostenlos; ","city":"Köln","infrastructure":"1,6,11","area":"Kalk","name":"Kalk Karree Köln"},"geometry":{"type":"Point","coordinates":[7.003942,50.935226]},"id":"1005407"},{"type":"Feature","properties":{"descriptiongb":"Usage Fee: free of charge; ","cardnamegb":"District Town Hall Kalk","zipcode":51103,"type":"Toilette in öffentlichen Einrichtungen","start":"","phone":"Startdaten","cardname":"Bezirksrathaus Kalk","openinggb":"During opening hours of the destrict town hall.","street":"Kalker Hauptstraße  247","image":"http://www.stadt-koeln.de/mediaasset/bilder/freizeit/toiletten/86.jpeg","opening":"Während der Öffnungszeiten des Bezirksrathauses.","district":"Kalk","stop":"","description":"Nutzungsgebühr: Kostenlos; ","city":"Köln","infrastructure":"1,6,11","area":"Kalk","name":"Bezirksrathaus Kalk"},"geometry":{"type":"Point","coordinates":[7.008619,50.939003]},"id":"1005406"},{"type":"Feature","properties":{"descriptiongb":"Usage Fee: free of charge; ","cardnamegb":"Cemetary Brück","zipcode":51109,"type":"Friedhofstoilette","start":"","phone":"Startdaten","cardname":"Friedhof Brück","openinggb":"During opening times of the cemetary.","street":"Lehmbacher Weg","image":"http://www.stadt-koeln.de/mediaasset/bilder/freizeit/toiletten/195.jpeg","opening":"Während der Öffnungszeiten des Friedhofs.","district":"Kalk","stop":"","description":"Nutzungsgebühr: Kostenlos; ","city":"Köln","infrastructure":"8,11","area":"Brück","name":"Friedhof Brück"},"geometry":{"type":"Point","coordinates":[7.079539,50.933552]},"id":"1005405"},{"type":"Feature","properties":{"descriptiongb":"Usage Fee: free of charge; ","cardnamegb":"Cemetary Kalk (Merheim) ","zipcode":51109,"type":"Friedhofstoilette","start":"","phone":"Startdaten","cardname":"Friedhof Kalk (Merheim) ","openinggb":"During opening times of the cemetary.","street":"Kratzweg  34","image":"http://www.stadt-koeln.de/mediaasset/bilder/freizeit/toiletten/91.jpeg","opening":"Während der Öffnungszeiten des Friedhofs.","district":"Kalk","stop":"","description":"Nutzungsgebühr: Kostenlos; ","city":"Köln","infrastructure":"8,11","area":"Merheim","name":"Friedhof Kalk (Merheim)"},"geometry":{"type":"Point","coordinates":[7.044158,50.944546]},"id":"1005404"},{"type":"Feature","properties":{"descriptiongb":"Usage Fee: free of charge; ","cardnamegb":"Cemetery Mülheim","zipcode":51103,"type":"Friedhofstoilette","start":"","phone":"Startdaten","cardname":"Friedhof Mülheim","openinggb":"During opening times of the cemetary.","street":"Frankfurter Straße  293","image":"http://www.stadt-koeln.de/mediaasset/bilder/freizeit/toiletten/90.jpeg","opening":"Während der Öffnungszeiten des Friedhofs.","district":"Mülheim","stop":"","description":"Nutzungsgebühr: Kostenlos; ","city":"Köln","infrastructure":"8,11","area":"Höhenberg","name":"Friedhof Mülheim"},"geometry":{"type":"Point","coordinates":[7.023283,50.947269]},"id":"1005403"},{"type":"Feature","properties":{"descriptiongb":"Usage Fee: free of charge; ","cardnamegb":"Vehical Registration Office Porz","zipcode":51105,"type":"Toilette in öffentlichen Einrichtungen","start":"","phone":"Startdaten","cardname":"Kfz-Zulassungsstelle Porz","openinggb":"During opening hours of the registration office.","street":"Max-Glomsda-Straße 4","image":"http://www.stadt-koeln.de/mediaasset/bilder/freizeit/toiletten/75.jpeg","opening":"Während der Öffnungszeiten der Zulassungsstelle.","district":"Porz","stop":"","description":"Nutzungsgebühr: Kostenlos; ","city":"Köln","infrastructure":"1,6,11","area":"Porz","name":"Kfz-Zulassungsstelle Porz"},"geometry":{"type":"Point","coordinates":[6.996249,50.923145]},"id":"1005402"},{"type":"Feature","properties":{"descriptiongb":"Usage Fee: free of charge; ","cardnamegb":"District Town Hall Porz","zipcode":51143,"type":"Toilette in öffentlichen Einrichtungen","start":"","phone":"Startdaten","cardname":"Bezirksrathaus Porz","openinggb":"Mon, Wed, Fri: 7.30 a.m. to 12 p.m., Tue: 9.30 a.m. to 6 p.m., Thu: 7.30 a.m. to 4 p.m.","street":"Friedrich-Ebert-Ufer 70","image":"http://www.stadt-koeln.de/mediaasset/bilder/freizeit/toiletten/74-1.jpeg","opening":"Mo, Mi, Fr: 7.30 - 12.00 Uhr, Di: 9.30 - 18.00 Uhr, Do: 7.30 - 16.00 Uhr","district":"Porz","stop":"","description":"Nutzungsgebühr: Kostenlos; ","city":"Köln","infrastructure":"1,6,11","area":"Porz","name":"Bezirksrathaus Porz"},"geometry":{"type":"Point","coordinates":[7.054183,50.885365]},"id":"1005401"},{"type":"Feature","properties":{"descriptiongb":"Usage Fee: free of charge; ","cardnamegb":"Cemetery Deutz","zipcode":51105,"type":"Friedhofstoilette","start":"","phone":"Startdaten","cardname":"Friedhof Deutz","openinggb":"During opening times of the cemetary.","street":"Rolshover Kirchweg 86","image":"http://www.stadt-koeln.de/mediaasset/bilder/freizeit/toiletten/80.jpeg","opening":"Während der Öffnungszeiten des Friedhofs.","district":"Porz","stop":"","description":"Nutzungsgebühr: Kostenlos; ","city":"Köln","infrastructure":"1,8,11","area":"Poll","name":"Friedhof Deutz"},"geometry":{"type":"Point","coordinates":[6.988319,50.921517]},"id":"1005400"},{"type":"Feature","properties":{"descriptiongb":"Usage Fee: free of charge; ","cardnamegb":"District Town Hall Chorweiler","zipcode":50765,"type":"Toilette in öffentlichen Einrichtungen","start":"","phone":"Startdaten","cardname":"Bezirksrathaus Chorweiler","openinggb":"During opening hours of the destrict town hall.","street":"Pariser Platz 1","image":"http://www.stadt-koeln.de/mediaasset/bilder/freizeit/toiletten/69.jpeg","opening":"Nur während der Öffnungszeiten des Bezirksrathauses.","district":"Chorweiler","stop":"","description":"Nutzungsgebühr: Kostenlos; ","city":"Köln","infrastructure":"1,6,11","area":"Chorweiler","name":"Bezirksrathaus Chorweiler"},"geometry":{"type":"Point","coordinates":[6.898242,51.02195]},"id":"1005399"},{"type":"Feature","properties":{"descriptiongb":"Usage Fee: free of charge;The toilet facilies are situated at parking area P1.; ","cardnamegb":"Fühlinger See / Parking area P1","zipcode":50769,"type":"Toilette in Grünanlagen","start":"2015-05-01","phone":"Startdaten","cardname":"Fühlinger See / Parkplatz P1","openinggb":"Mon - Sun: 8 a.m. to 8 p.m.;Toilets only available from 1st of May to 15th of September","street":"Oranjehofstr. 105","image":"","opening":"Mo - So: 8.00 - 20.00 Uhr;Nur geöffnet vom 01. Mai bis 15. September.","district":"Chorweiler","stop":"2015-09-15","description":"Nutzungsgebühr: Kostenlos;Das WC-Gebäude befindet sich auf dem Parkplatz P1.; ","city":"Köln","infrastructure":"1,8,11","area":"Fühlingen","name":"Fühlinger See / Parkplatz P1"},"geometry":{"type":"Point","coordinates":[6.892948,51.02174]},"id":"1005398"},{"type":"Feature","properties":{"descriptiongb":"Usage Fee: free of charge;The toilet facilies are situated at parking area P5.; ","cardnamegb":"Fühlinger See / Parking area P5","zipcode":50769,"type":"Toilette in Grünanlagen","start":"2015-05-01","phone":"Startdaten","cardname":"Fühlinger See / Parkplatz P5","openinggb":"Mon - Sun: 8 a.m. to 8 p.m.;Toilets only available from 1st of May to 15th of September","street":"Merianstraße  1","image":"http://www.stadt-koeln.de/mediaasset/bilder/freizeit/toiletten/193.jpeg","opening":"Mo - So: 8.00 - 20.00 Uhr; Nur geöffnet vom 01. Mai bis 15. September.","district":"Chorweiler","stop":"2015-09-15","description":"Nutzungsgebühr: Kostenlos;Das WC-Gebäude befindet sich auf dem Parkplatz P5.; ","city":"Köln","infrastructure":"1,8,11","area":"Fühlingen","name":"Fühlinger See / Parkplatz P5"},"geometry":{"type":"Point","coordinates":[6.911759,51.028347]},"id":"1005397"},{"type":"Feature","properties":{"descriptiongb":"Usage Fee: free of charge;Only available from the 1st of May to the 15th of September.; ","cardnamegb":"Boathouse Fühlinger See","zipcode":50769,"type":"Toilette in Grünanlagen","start":"2015-05-01","phone":"Startdaten","cardname":"Bootshaus Fühlinger See","openinggb":"Mon - Sun: 8 a.m. to 8 p.m.","street":"Oranjehofstraße 105","image":"http://www.stadt-koeln.de/mediaasset/bilder/freizeit/toiletten/72.jpeg","opening":"Mo - So: 8.00 - 20.00 Uhr","district":"Chorweiler","stop":"2015-09-15","description":"Nutzungsgebühr: Kostenlos;Nur geöffnet vom 01. Mai bis 15. September.; ","city":"Köln","infrastructure":"1,8,11","area":"Fühlingen","name":"Bootshaus Fühlinger See"},"geometry":{"type":"Point","coordinates":[6.929986,51.021568]},"id":"1005396"},{"type":"Feature","properties":{"descriptiongb":"Usage Fee: free of charge; ","cardnamegb":"Cemetery Chorweiler","zipcode":50765,"type":"Friedhofstoilette","start":"","phone":"Startdaten","cardname":"Friedhof Chorweiler","openinggb":"During opening times of the cemetary.","street":"Thujaweg 12","image":"http://www.stadt-koeln.de/mediaasset/bilder/freizeit/toiletten/71.jpeg","opening":"Während der Öffnungszeiten des Friedhofs.","district":"Chorweiler","stop":"","description":"Nutzungsgebühr: Kostenlos; ","city":"Köln","infrastructure":"8,11","area":"Volkhoven / Weiler","name":"Friedhof Chorweiler"},"geometry":{"type":"Point","coordinates":[6.878399,51.018417]},"id":"1005395"},{"type":"Feature","properties":{"descriptiongb":"Usage Fee: free of charge; ","cardnamegb":"Flora / Botanical Garden","zipcode":50735,"type":"Toilette in öffentlichen Einrichtungen","start":"","phone":"Startdaten","cardname":"Flora / Botanischer Garten","openinggb":"Mon - Sun: 8.00 a.m. to  sunset","street":"Am Botanischen Garten","image":"http://www.stadt-koeln.de/mediaasset/bilder/freizeit/toiletten/61.jpeg","opening":"Mo - So: 8.00 Uhr bis Eintritt der Dunkelheit","district":"Nippes","stop":"","description":"Nutzungsgebühr: Kostenlos; ","city":"Köln","infrastructure":"1,6,11","area":"Riehl","name":"Flora / Botanischer Garten"},"geometry":{"type":"Point","coordinates":[6.972451,50.95911]},"id":"1005394"},{"type":"Feature","properties":{"descriptiongb":"Usage Fee: free of charge; ","cardnamegb":"District Town Hall Nippes","zipcode":50733,"type":"Toilette in öffentlichen Einrichtungen","start":"","phone":"Startdaten","cardname":"Bezirksrathaus Nippes","openinggb":"Mon, Wed, Fri: 7.30 a.m. to 12.00 p.m.;Tue: 9.30 a.m. to 6.00 p.m.;Thu: 7.30 a.m. to 4.00 p.m.","street":"Neusser Straße 452","image":"http://www.stadt-koeln.de/mediaasset/bilder/freizeit/toiletten/58.jpeg","opening":"Mo, Mi, Fr: 7.30 - 12.00 Uhr;Di: 9.30 - 18.00 Uhr;Do: 7.30 - 16.00 Uhr","district":"Nippes","stop":"","description":"Nutzungsgebühr: Kostenlos; ","city":"Köln","infrastructure":"1,6,11","area":"Weidenpesch","name":"Bezirksrathaus Nippes"},"geometry":{"type":"Point","coordinates":[6.951424,50.972645]},"id":"1005393"},{"type":"Feature","properties":{"descriptiongb":"Usage Fee: free of charge; ","cardnamegb":"Em Golde Kappes","zipcode":50733,"type":"HappyToilet Köln","start":"","phone":"Startdaten","cardname":"Em Golde Kappes","openinggb":"Mon - Sat: 11.00 a.m. to Midnight;Sun: closed","street":"Neusser Str. 295","image":"","opening":"Mo - Sa: 11.00 - 24.00 Uhr;So: geschlossen","district":"Nippes","stop":"","description":"Nutzungsgebühr: Kostenlos; ","city":"Köln","infrastructure":"7,11","area":"Nippes","name":"Em Golde Kappes"},"geometry":{"type":"Point","coordinates":[6.953536,50.965307]},"id":"1005392"},{"type":"Feature","properties":{"descriptiongb":"Usage Fee: free of charge; ","cardnamegb":"Cologne North Cemetary","zipcode":50735,"type":"Friedhofstoilette","start":"","phone":"Startdaten","cardname":"Nordfriedhof","openinggb":"During opening times of the cemetary.","street":"Merheimer Straße 463","image":"http://www.stadt-koeln.de/mediaasset/bilder/freizeit/toiletten/65.jpeg","opening":"Während der Öffnungszeiten des Friedhofs.","district":"Nippes","stop":"","description":"Nutzungsgebühr: Kostenlos; ","city":"Köln","infrastructure":"8,11","area":"Weidenpesch","name":"Nordfriedhof"},"geometry":{"type":"Point","coordinates":[6.94567,50.977375]},"id":"1005391"},{"type":"Feature","properties":{"descriptiongb":"Usage Fee: free of charge; ","cardnamegb":"Cologne New North Cemetary","zipcode":50735,"type":"Friedhofstoilette","start":"","phone":"Startdaten","cardname":"Neuer Nordfriedhof","openinggb":"During opening times of the cemetary.","street":"Schmiedegasse 58","image":"http://www.stadt-koeln.de/mediaasset/bilder/freizeit/toiletten/64.jpeg","opening":"Während der Öffnungszeiten des Friedhofs.","district":"Nippes","stop":"","description":"Nutzungsgebühr: Kostenlos; ","city":"Köln","infrastructure":"1,8,11","area":"Weidenpesch","name":"Neuer Nordfriedhof"},"geometry":{"type":"Point","coordinates":[6.941526,50.978767]},"id":"1005390"},{"type":"Feature","properties":{"descriptiongb":"Usage Fee: free of charge; ","cardnamegb":"Cemetary Longerich","zipcode":50739,"type":"Friedhofstoilette","start":"","phone":"Startdaten","cardname":"Friedhof Longerich","openinggb":"During opening times of the cemetary.","street":"Alexander-Petöfi-Platz","image":"http://www.stadt-koeln.de/mediaasset/bilder/freizeit/toiletten/62.jpeg","opening":"Während der Öffnungszeiten des Friedhofs.","district":"Nippes","stop":"","description":"Nutzungsgebühr: Kostenlos; ","city":"Köln","infrastructure":"8,11","area":"Longerich","name":"Friedhof Longerich"},"geometry":{"type":"Point","coordinates":[6.911028,50.995338]},"id":"1005389"},{"type":"Feature","properties":{"descriptiongb":"Usage Fee: free of charge;Toilet is situated at the market square in Longerich.; ","cardnamegb":"Longerich Market","zipcode":50737,"type":"City-Toilette","start":"","phone":"Startdaten","cardname":"Longerich Markt","openinggb":"Only opened during opening hours of the market.","street":"Schlackstr.","image":"","opening":"Nur zu Marktzeiten geöffnet.","district":"Nippes","stop":"","description":"Nutzungsgebühr: Kostenlos;Die Toilette befindet sich auf dem Markt in Longerich.; ","city":"Köln","infrastructure":"5,11","area":"Longerich","name":"City-Toilette"},"geometry":{"type":"Point","coordinates":[6.920048,50.995084]},"id":"1005388"},{"type":"Feature","properties":{"descriptiongb":"Usage Fee: free of charge; ","cardnamegb":"Public Library Ehrenfeld","zipcode":50825,"type":"Toilette in öffentlichen Einrichtungen","start":"","phone":"Startdaten","cardname":"Stadtteilbibliothek Ehrenfeld","openinggb":"Mon, Wed: 12 a.m. to 6 p.m.;Thu: 11 a.m. to 7 p.m.;Fri: 10 a.m. to 6 p.m.;Sat: 10 a.m. to 2 p.m.;Tue: Closed","street":"Subbelrather Straße  249","image":"http://www.stadt-koeln.de/mediaasset/bilder/freizeit/toiletten/216.jpeg","opening":"Mo, Mi: 12.00 - 18.00 Uhr;Do: 11.00 - 19.00 Uhr;Fr: 10.00 - 18.00 Uhr;Sa: 10.00 - 14.00 Uhr;Dienstag geschlossen","district":"Ehrenfeld","stop":"","description":"Nutzungsgebühr: Kostenlos; ","city":"Köln","infrastructure":"1,6,11","area":"Ehrenfeld","name":"Stadtteilbibliothek Ehrenfeld"},"geometry":{"type":"Point","coordinates":[6.919326,50.953945]},"id":"1005387"},{"type":"Feature","properties":{"descriptiongb":"Usage Fee: free of charge; ","cardnamegb":"District Town Hall Ehrenfeld","zipcode":50825,"type":"Toilette in öffentlichen Einrichtungen","start":"","phone":"Startdaten","cardname":"Bezirksrathaus Ehrenfeld","openinggb":"Mon, Wed, Fri: 7.30 a.m. to 12.00 p.m.;Tue: 9.30 a.m. to 6.00 p.m.;Thu: 7.30 a.m. to 4.00 p.m.","street":"Venloer Straße  419","image":"http://www.stadt-koeln.de/mediaasset/bilder/freizeit/toiletten/54.jpeg","opening":"Mo, Mi, Fr: 7.30 - 12.00 Uhr;Di: 9.30 - 18.00 Uhr;Do: 7.30 - 16.00 Uhr","district":"Ehrenfeld","stop":"","description":"Nutzungsgebühr: Kostenlos; ","city":"Köln","infrastructure":"1,6,11","area":"Ehrenfeld","name":"Bezirksrathaus Ehrenfeld"},"geometry":{"type":"Point","coordinates":[6.913416,50.952099]},"id":"1005386"},{"type":"Feature","properties":{"descriptiongb":"Usage Fee: free of charge; ","cardnamegb":"Kletterfabrik Köln","zipcode":50825,"type":"HappyToilet Köln","start":"","phone":"Startdaten","cardname":"Kletterfabrik Köln","openinggb":"Mon - Fri:9.30 a.m. to 11.30 p.m.; Sat and Sun: 10.00 a.m. to 10.00 p.m.","street":"Oskar-Jäger-Str. 173","image":"","opening":"Mo - Fr: 9.30 - 23.30 Uhr;Sa und So: 10.00 - 22.00 Uhr","district":"Ehrenfeld","stop":"","description":"Nutzungsgebühr: Kostenlos; ","city":"Köln","infrastructure":"7,11","area":"Ehrenfeld","name":"Kletterfabrik Köln"},"geometry":{"type":"Point","coordinates":[6.906809,50.947958]},"id":"1005385"},{"type":"Feature","properties":{"descriptiongb":"Usage Fee: free of charge; ","cardnamegb":"Mourning Hall Piusstrasse","zipcode":50931,"type":"Friedhofstoilette","start":"","phone":"Startdaten","cardname":"Trauerhalle Piusstraße (Friedhof Melaten)","openinggb":"During opening times of the cemetary.","street":"Piusstr  177","image":"http://www.stadt-koeln.de/mediaasset/bilder/freizeit/toiletten/45.jpeg","opening":"Während der Öffnungszeiten des Friedhofs.","district":"Ehrenfeld","stop":"","description":"Nutzungsgebühr: Kostenlos; ","city":"Köln","infrastructure":"1,8,11","area":"Ehrenfeld","name":"Trauerhalle Piusstraße (Friedhof Melaten)"},"geometry":{"type":"Point","coordinates":[6.921949,50.939384]},"id":"1005384"},{"type":"Feature","properties":{"descriptiongb":"Usage Fee: free of charge; ","cardnamegb":"Cologne West Cemetary","zipcode":50829,"type":"Friedhofstoilette","start":"","phone":"Startdaten","cardname":"Westfriedhof","openinggb":"During opening times of the cemetary.","street":"Venloer Str. 1132","image":"","opening":"Während der Öffnungszeiten des Friedhofs.","district":"Ehrenfeld","stop":"","description":"Nutzungsgebühr: Kostenlos; ","city":"Köln","infrastructure":"8,11","area":"Vogelsang","name":"Westfriedhof"},"geometry":{"type":"Point","coordinates":[6.878633,50.968044]},"id":"1005383"},{"type":"Feature","properties":{"descriptiongb":"Usage Fee: free of charge; ","cardnamegb":"Mourning Hall West Cemetary","zipcode":50829,"type":"Friedhofstoilette","start":"","phone":"Startdaten","cardname":"Westfriedhof Trauerhalle","openinggb":"During opening times of the cemetary.","street":"Venloer Straße  1079","image":"http://www.stadt-koeln.de/mediaasset/bilder/freizeit/toiletten/56.jpeg","opening":"Während der Öffnungszeiten des Friedhofs.","district":"Ehrenfeld","stop":"","description":"Nutzungsgebühr: Kostenlos; ","city":"Köln","infrastructure":"1,8,11","area":"Vogelsang","name":"Westfriedhof Trauerhalle"},"geometry":{"type":"Point","coordinates":[6.875672,50.968399]},"id":"1005382"},{"type":"Feature","properties":{"descriptiongb":"Usage Fee: free of charge; ","cardnamegb":"Wildlife Park Lindenthal","zipcode":50935,"type":"Toilette in öffentlichen Einrichtungen","start":"","phone":"Startdaten","cardname":"Wildpark Lindenthal","openinggb":"Mon - Sat: 8 a.m. to 6 p.m.;Sun + public holidays: 9 a.m. to 6 p.m.","street":"Stadtwald","image":"","opening":"Mo - Sa: 8.00 - 18.00 Uhr;So + Feiertag: 9.00 - 18.00 Uhr","district":"Lindenthal","stop":"","description":"Nutzungsgebühr: Kostenlos; ","city":"Köln","infrastructure":"6,11","area":"Lindenthal","name":"Wildpark Lindenthal"},"geometry":{"type":"Point","coordinates":[6.903464,50.931692]},"id":"1005381"},{"type":"Feature","properties":{"descriptiongb":"Usage Fee: free of charge; ","cardnamegb":"District Town Hall Lindenthal","zipcode":50931,"type":"Toilette in öffentlichen Einrichtungen","start":"","phone":"Startdaten","cardname":"Bezirksrathaus Lindenthal","openinggb":"During opening hours of the destrict town hall.","street":"Aachener Straße 220","image":"http://www.stadt-koeln.de/mediaasset/bilder/freizeit/toiletten/44.jpeg","opening":"Während der Öffnungszeiten des Bezirksrathauses.","district":"Lindenthal","stop":"","description":"Nutzungsgebühr: Kostenlos; ","city":"Köln","infrastructure":"1,6,11","area":"Lindenthal","name":"Bezirksrathaus Lindenthal"},"geometry":{"type":"Point","coordinates":[6.912183,50.937477]},"id":"1005380"},{"type":"Feature","properties":{"descriptiongb":"Usage Fee: free of charge; ","cardnamegb":"Cemetary Weiden","zipcode":50859,"type":"Friedhofstoilette","start":"","phone":"Startdaten","cardname":"Friedhof Weiden","openinggb":"During opening times of the cemetary.","street":"Albert-Kindle-Straße 36","image":"http://www.stadt-koeln.de/mediaasset/bilder/freizeit/toiletten/46.jpeg","opening":"Während der Öffnungszeiten des Friedhofs.","district":"Lindenthal","stop":"","description":"Nutzungsgebühr: Kostenlos; ","city":"Köln","infrastructure":"8,11","area":"Weiden","name":"Neuer Friedhof Weiden"},"geometry":{"type":"Point","coordinates":[6.820954,50.940407]},"id":"1005379"},{"type":"Feature","properties":{"descriptiongb":"Usage Fee: free of charge; ","cardnamegb":"Melaten Cemetary ","zipcode":50931,"type":"Friedhofstoilette","start":"","phone":"Startdaten","cardname":"Friedhof Melaten","openinggb":"During opening times of the cemetary.","street":"Aachener Straße  304","image":"http://www.stadt-koeln.de/mediaasset/bilder/freizeit/toiletten/42.jpeg","opening":"Während der Öffnungszeiten des Friedhofs.","district":"Lindenthal","stop":"","description":"Nutzungsgebühr: Kostenlos; ","city":"Köln","infrastructure":"8,11","area":"Lindenthal","name":"Friedhof Melaten"},"geometry":{"type":"Point","coordinates":[6.915958,50.936981]},"id":"1005378"},{"type":"Feature","properties":{"descriptiongb":"Usage Fee: free of charge; ","cardnamegb":"Public library Rodenkirchen ","zipcode":50996,"type":"Toilette in öffentlichen Einrichtungen","start":"","phone":"Startdaten","cardname":"Stadtbibliothek Rodenkirchen ","openinggb":"During opening hours of the library.","street":"Schillingsrotter Straße  38","image":"http://www.stadt-koeln.de/mediaasset/bilder/freizeit/toiletten/191.jpeg","opening":"Während der Öffnungszeiten der Bibliothek.","district":"Innenstadt","stop":"","description":"Nutzungsgebühr: Kostenlos; ","city":"Köln","infrastructure":"1,6,11","area":"Rodenkirchen","name":"Stadtteilbibliothek Rodenkirchen"},"geometry":{"type":"Point","coordinates":[6.99204,50.889244]},"id":"1005377"},{"type":"Feature","properties":{"descriptiongb":"Usage Fee: free of charge; ","cardnamegb":"Cologne Wholesale Market","zipcode":50968,"type":"Toilette in öffentlichen Einrichtungen","start":"","phone":"Startdaten","cardname":"Großmarkt Köln","openinggb":"Mon - Sun: 8 a.m. to 12 p.m.","street":"Marktstraße 10","image":"http://www.stadt-koeln.de/mediaasset/bilder/freizeit/toiletten/43.jpeg","opening":"Mo - Fr: 8.00 - 12.00 Uhr","district":"","stop":"","description":"Nutzungsgebühr: Kostenlos; ","city":"Köln","infrastructure":"6,11","area":"Raderberg","name":"Großmarkt Köln"},"geometry":{"type":"Point","coordinates":[6.959113,50.912724]},"id":"1005376"},{"type":"Feature","properties":{"descriptiongb":"Usage Fee: free of charge; ","cardnamegb":"Brauhaus Quetsch","zipcode":50996,"type":"HappyToilet Köln","start":"","phone":"Startdaten","cardname":"Brauhaus Quetsch","openinggb":"Daily from 11.30 a.m. to 0.30 a.m.","street":"Hauptstr. 7","image":"","opening":"Täglich: 11.30 - 0.30 Uhr","district":"Rodenkirchen","stop":"","description":"Nutzungsgebühr: Kostenlos; ","city":"Köln","infrastructure":"7,11","area":"Rodenkirchen","name":"Brauhaus Quetsch"},"geometry":{"type":"Point","coordinates":[6.990847,50.89671]},"id":"1005375"},{"type":"Feature","properties":{"descriptiongb":"Usage Fee: free of charge; ","cardnamegb":"Cologne University of Applied Sciences","zipcode":50678,"type":"Toilette in öffentlichen Einrichtungen","start":"","phone":"Startdaten","cardname":"Fachhochschule Köln","openinggb":"Mon - Fri: 7 a.m. to 11 p.m.;Sat: 8 a.m to 2 p.m.","street":"Ubierring 40","image":"http://www.stadt-koeln.de/mediaasset/bilder/freizeit/toiletten/234.jpeg","opening":"Mo - Fr: 7.00 - 23.00 Uhr;Sa: 8.00 - 14.00 Uhr","district":"Innenstadt","stop":"","description":"Nutzungsgebühr: Kostenlos; ","city":"Köln","infrastructure":"1,6,11","area":"Neustadt Süd","name":"Fachhochschule Köln"},"geometry":{"type":"Point","coordinates":[6.963521,50.92157]},"id":"1005365"},{"type":"Feature","properties":{"descriptiongb":"Usage Fee: free of charge; ","cardnamegb":"Cologne University of Applied Sciences","zipcode":50678,"type":"Toilette in öffentlichen Einrichtungen","start":"","phone":"Startdaten","cardname":"Fachhochschule Köln","openinggb":"Mon - Fri: 7 a.m. to 11 p.m.;Sat: 8 a.m to 2 p.m.","street":"Ubierring 48","image":"http://www.stadt-koeln.de/mediaasset/bilder/freizeit/toiletten/235.jpeg","opening":"Mo - Fr: 7.00 - 23.00 Uhr;Sa: 8.00 - 14.00 Uhr","district":"Innenstadt","stop":"","description":"Nutzungsgebühr: Kostenlos; ","city":"Köln","infrastructure":"1,6,11","area":"Neustadt Süd","name":"Fachhochschule Köln"},"geometry":{"type":"Point","coordinates":[6.965057,50.922031]},"id":"1005370"},{"type":"Feature","properties":{"descriptiongb":"Usage Fee: free of charge; ","cardnamegb":"Cologne University of Applied Sciences","zipcode":50678,"type":"Toilette in öffentlichen Einrichtungen","start":"","phone":"Startdaten","cardname":"Fachhochschule Köln","openinggb":"Mon - Fri: 7 a.m. to 11 p.m.;Sat: 8 a.m to 2 p.m.","street":"Claudiusstraße 1","image":"http://www.stadt-koeln.de/mediaasset/bilder/freizeit/toiletten/236-1.jpeg","opening":"Mo - Fr: 7.00 - 23.00 Uhr, Sa: 8.00 - 14.00 Uhr","district":"Innenstadt","stop":"","description":"Nutzungsgebühr: Kostenlos; ","city":"Köln","infrastructure":"1,6,11","area":"Neustadt Süd","name":"Fachhochschule Köln"},"geometry":{"type":"Point","coordinates":[6.966857,50.919369]},"id":"1005371"},{"type":"Feature","properties":{"descriptiongb":"Usage Fee: €0.50;Urinal is free of charge.; ","cardnamegb":"City toilet","zipcode":50679,"type":"City-Toilette","start":"","phone":"Startdaten","cardname":"City-Toilette","openinggb":"Mon - Sun: 24 hours","street":"Urban Str./Ecke Mindener Str.","image":"http://www.awbkoeln.de/typo3temp/_processed_/csm_AWB_Citytoilette_Urbanstr_Mindenerstr._b848f72440.jpg","opening":"Mo - So: durchgehend geöffnet","district":"Innenstadt","stop":"","description":"Nutzungsgebühr: 0,50 €;Das Urinal ist kostenlos nutzbar.; ","city":"Köln","infrastructure":"1,2,3,4,5,9","area":"Deutz","name":"City-Toilette"},"geometry":{"type":"Point","coordinates":[6.970702,50.938425]},"id":"1005364"},{"type":"Feature","properties":{"descriptiongb":"Usage Fee: free of charge;Pop-up urinal.; ","cardnamegb":"Urilift Rheinauhafen","zipcode":50678,"type":"City-Toilette","start":"","phone":"Startdaten","cardname":"Urilift Rheinauhafen","openinggb":"Mon - Sun: 8 p.m. to 6.30 a.m.","street":"Severinsbrücke","image":"http://www.stadt-koeln.de/mediaasset/bilder/freizeit/toiletten/120.jpeg","opening":"Mo - So: 20.00 - 6.30 Uhr","district":"","stop":"","description":"Nutzungsgebühr: Kostenlos;Versenkbarer Urilift.; ","city":"Köln","infrastructure":"4,5,11","area":"Altstadt-Süd","name":"Urilift Rheinauhafen"},"geometry":{"type":"Point","coordinates":[6.964935,50.930279]},"id":"1005363"},{"type":"Feature","properties":{"descriptiongb":"Usage Fee: free of charge; ","cardnamegb":"Cologne South Cemetary","zipcode":50969,"type":"Friedhofstoilette","start":"","phone":"Startdaten","cardname":"Südfriedhof","openinggb":"During opening times of the cemetary.","street":"Höninger Platz  25","image":"","opening":"Während der Öffnungszeiten des Friedhofs.","district":"Rodenkirchen","stop":"","description":"Nutzungsgebühr: Kostenlos; ","city":"Köln","infrastructure":"8,11","area":"Zollstock","name":"Südfriedhof"},"geometry":{"type":"Point","coordinates":[6.943883,50.900669]},"id":"1005360"},{"type":"Feature","properties":{"descriptiongb":"Usage Fee: free of charge; ","cardnamegb":"Cologne South Cemetary","zipcode":50969,"type":"Friedhofstoilette","start":"","phone":"Startdaten","cardname":"Südfriedhof","openinggb":"During opening times of the cemetary.","street":"Kendenicher Str. 4","image":"http://www.stadt-koeln.de/mediaasset/bilder/freizeit/toiletten/37-1.jpeg","opening":"Während der Öffnungszeiten des Friedhofs.","district":"Rodenkirchen","stop":"","description":"Nutzungsgebühr: Kostenlos; ","city":"Köln","infrastructure":"8,11","area":"Zollstock","name":"Südfriedhof"},"geometry":{"type":"Point","coordinates":[6.942707,50.900992]},"id":"1005374"},{"type":"Feature","properties":{"descriptiongb":"Usage Fee: free of charge; ","cardnamegb":"","zipcode":50996,"type":"Toilette in öffentlichen Einrichtungen","start":"","phone":"Startdaten","cardname":"","openinggb":"Mon, Tue: 12 p.m. to 6 p.m.; Thu: 11 a.m. to 7 p.m.; Fri: 10 a.m. to 6 p.m.; Sat: 10 a.m. to 2 p.m.","street":"Schillingsrotter Straße  100","image":"http://www.stadt-koeln.de/mediaasset/bilder/freizeit/toiletten/34.jpeg","opening":"Mo, Di: 12.00 - 18.00 Uhr; Do: 11.00 - 19.00 Uhr; Fr: 10.00 - 18.00 Uhr; Sa: 10.00 - 14.00 Uhr","district":"Rodenkirchen","stop":"","description":"Nutzungsgebühr: Kostenlos; ","city":"Köln","infrastructure":"1,6,11","area":"Rodenkirchen","name":"Forstbotanischer Garten"},"geometry":{"type":"Point","coordinates":[6.987868,50.883148]},"id":"1005357"},{"type":"Feature","properties":{"descriptiongb":"Usage Fee: €0.50;The toilet is situated in the Underground of the subway station.; ","cardnamegb":"Underground Station Friesenplatz (underground)","zipcode":50672,"type":"City-Toilette","start":"","phone":"Startdaten","cardname":"U-Bahn Station Friesenplatz (unterirdisch)","openinggb":"Mon - Fri: 8 a.m. to 9 p.m.;Sat: 10 a.m. to 8 p.m.;Sun and public holidays: 10.00 a.m. to 6 p.m.;Christmas Eve (24.12.): 8 a.m. to 4 p.m.","street":"Friesenplatz  1 - 15","image":"http://www.stadt-koeln.de/mediaasset/bilder/freizeit/toiletten/26.jpeg","opening":"Mo - Fr: 8.00 - 21.00 Uhr;Sa: 10.00 - 20.00 Uhr;So und Feiertag: 10.00 - 18.00 Uhr;Heiligabend (24.12): 8.00 - 16.00 Uhr","district":"Innenstadt","stop":"","description":"Nutzungsgebühr: 0,50 €;Die Toilette befindet sich in der U-Bahn Station Friesenplatz unterirdisch.; ","city":"Köln","infrastructure":"5,9","area":"Neustadt Nord","name":"U-Bahn Station Friesenplatz (unterirdisch)"},"geometry":{"type":"Point","coordinates":[6.939691,50.940479]},"id":"1005355"},{"type":"Feature","properties":{"descriptiongb":"Usage Fee: €0.50; ","cardnamegb":"City toilet","zipcode":50667,"type":"City-Toilette","start":"","phone":"Startdaten","cardname":"City-Toilette","openinggb":"Mon - Thu: 10 a.m. to 8 p.m.;Fri + Sat: 10 a.m. to 11 p.m.;Sun + public holidays: 10 a.m. to 9 p.m.;Christmas Eve (24.12.): 8 a.m. to 4 p.m.;New Year's Eve (31.12): 8 a.m. to 1.30 a.m.;New Year (1.1.): 10 a.m. to 6 p.m.","street":"Mauthgasse  1","image":"http://www.stadt-koeln.de/mediaasset/bilder/freizeit/toiletten/25-1.jpeg","opening":"Mo - Do: 10.00 - 20.00 Uhr;Fr + Sa: 10.00 - 23.00 Uhr;So + Feiertag: 10.00 - 21.00 Uhr;Heiligabend (24.12): 8.00 - 16.00 Uhr;Silvester (31.12.): 8.00 - 1.30 Uhr;Neujahr (1.1.): 10.00 - 18.00 Uhr","district":"Innenstadt","stop":"","description":"Nutzungsgebühr: 0,50 €; ","city":"Köln","infrastructure":"1,5,9","area":"Neustadt Nord","name":"City-Toilette Mauthgasse"},"geometry":{"type":"Point","coordinates":[6.962204962,50.938347]},"id":"1005354"},{"type":"Feature","properties":{"descriptiongb":"Usage Fee: free of Charge;Pop-up urinal; ","cardnamegb":"Urilift Bayenwerft","zipcode":50678,"type":"City-Toilette","start":"","phone":"Startdaten","cardname":"Urilift Bayenwerft","openinggb":"Mon - Sun: 8 p.m. to 6.30 a.m.","street":"Am Bayenturm","image":"http://www.stadt-koeln.de/mediaasset/bilder/freizeit/toiletten/16-1.jpeg","opening":"Mo - So: 20.00 - 6.30 Uhr","district":"Innenstadt","stop":"","description":"Nutzungsgebühr: Kostenlos;Versenkbarer Urilift; ","city":"Köln","infrastructure":"4,5,11","area":"Altstadt Süd","name":"Urilift Bayenwerft"},"geometry":{"type":"Point","coordinates":[6.963361,50.927921]},"id":"1005352"},{"type":"Feature","properties":{"descriptiongb":"Usage Fee: free of charge; ","cardnamegb":"Historic Town Hall","zipcode":50667,"type":"Toilette in öffentlichen Einrichtungen","start":"","phone":"Startdaten","cardname":"Historisches Rathaus","openinggb":"Tue - Fri: 10 a.m. to 6 p.m.;Thu: 10 a.m. to 10 p.m.;Sat, Sun + public holidays: 11 a.m. to 6 p.m.","street":"Rathausplatz 2","image":"http://www.stadt-koeln.de/mediaasset/bilder/freizeit/toiletten/9-1.jpeg","opening":"Di - Fr: 10.00 - 18.00 Uhr;Do: 10.00 - 22.00 Uhr;Sa, So + Feiertag: 11.00 - 18.00 Uhr","district":"Innenstadt","stop":"","description":"Nutzungsgebühr: Kostenlos; ","city":"Köln","infrastructure":"1,6,11","area":"Altstadt Nord","name":"Historisches Rathaus"},"geometry":{"type":"Point","coordinates":[6.958989,50.938534]},"id":"1005351"},{"type":"Feature","properties":{"descriptiongb":"Usage Fee: free of charge; ","cardnamegb":"Spanish Building","zipcode":50667,"type":"Toilette in öffentlichen Einrichtungen","start":"","phone":"Startdaten","cardname":"Spanischer Bau","openinggb":"Mon, Wed, Thu: 8 a.m. to 4 p.m.;Tue: 8 a.m. to 6 p.m.;Fri: 8 a.m. to 12.p.m.","street":"Rathausplatz  4","image":"http://www.stadt-koeln.de/mediaasset/bilder/freizeit/toiletten/8.jpeg","opening":"Mo, Mi, Do: 8.00 - 16.00 Uhr;Di: 8.00 - 18.00 Uhr;Fr: 8.00 - 12.00 Uhr","district":"Innenstadt","stop":"","description":"Nutzungsgebühr: Kostenlos; ","city":"Köln","infrastructure":"1,6,11","area":"Altstadt Nord","name":"Spanischer Bau"},"geometry":{"type":"Point","coordinates":[6.958989,50.938534]},"id":"1005350"},{"type":"Feature","properties":{"descriptiongb":"Usage Fee: free of charge; ","cardnamegb":"Central Customer Service Center","zipcode":50667,"type":"Toilette in öffentlichen Einrichtungen","start":"","phone":"Startdaten","cardname":"Kundenzentrum Innenstadt","openinggb":"Mon - Sun: 7 a.m. to 7 p.m.","street":"Laurenzplatz  1","image":"http://www.stadt-koeln.de/mediaasset/bilder/freizeit/toiletten/6.jpeg","opening":"Mo - Fr: 7.00 - 19.00 Uhr","district":"Innenstadt","stop":"","description":"Nutzungsgebühr: Kostenlos; ","city":"Köln","infrastructure":"1,6,11","area":"Altstadt Nord","name":"Kundenzentrum Innenstadt"},"geometry":{"type":"Point","coordinates":[6.957325,50.938549]},"id":"1005349"},{"type":"Feature","properties":{"descriptiongb":"Usage Fee: free of charge; ","cardnamegb":"Municipal library","zipcode":50667,"type":"Toilette in öffentlichen Einrichtungen","start":"","phone":"Startdaten","cardname":"Stadtbibliothek","openinggb":"Tue - Thu: 10 a.m. to 8 p.m.;Wed - Fri: 10 a.m. to 6 p.m.;Sat: 10 a.m. to 3 p.m.","street":"Josef-Haubrich-Hof 1","image":"http://www.stadt-koeln.de/mediaasset/bilder/freizeit/toiletten/5.jpeg","opening":"Di - Do: 10.00 - 20.00 Uhr;Mi - Fr: 10.00 - 18.00 Uhr;Sa: 10.00 - 15.00 Uhr","district":"Innenstadt","stop":"","description":"Nutzungsgebühr: Kostenlos; ","city":"Köln","infrastructure":"1,6,11","area":"Altstadt Süd","name":"Stadtbibliothek"},"geometry":{"type":"Point","coordinates":[6.949366,50.934361]},"id":"1005348"},{"type":"Feature","properties":{"descriptiongb":"Usage Fee: €0.50;Credit cards accepted.;Toilet is situated at the south side of the cathedral and can be accessed through a modern speed gate entrance system.; ","cardnamegb":"City toilet","zipcode":50667,"type":"Toilette in öffentlichen Einrichtungen","start":"","phone":"Startdaten","cardname":"City-Toilette","openinggb":"Mon - Sun: 8 a.m. to 9 p.m.;Christmas Eve (24.12.): 8 a.m. to 4 p.m.;New Year's Eve (31.12): 8 a.m. to 1 a.m.;New Year (1.1.): 10 a.m. to 6 p.m.","street":"Domkloster  4","image":"http://www.stadt-koeln.de/mediaasset/bilder/freizeit/toiletten/0-1.jpeg","opening":"Mo - So: 8.00 - 21.00 Uhr;Heiligabend (24.12): 8.00 - 16.00 Uhr;Silvester (31.12.): 8.00 - 1.00 Uhr;Neujahr (1.1.): 10.00 - 18.00 Uhr","district":"Innenstadt","stop":"","description":"Nutzungsgebühr: 0,50 €;Zahlung mit Kreditkarte möglich.;Toilette befindet sich an der Südseite vom Dom und verfügt über ein modernes Speed-Gate für den Einlass. ; ","city":"Köln","infrastructure":"1,9","area":"Altstadt Nord","name":"City-Toilette Dom"},"geometry":{"type":"Point","coordinates":[6.957095,50.940853]},"id":"1005347"},{"type":"Feature","properties":{"descriptiongb":"Usage Fee: free of charge; ","cardnamegb":"District Town Hall Rodenkirchen","zipcode":50996,"type":"Toilette in öffentlichen Einrichtungen","start":"","phone":"Startdaten","cardname":"Bezirksrathaus Rodenkirchen","openinggb":"Mon, Wed, Fri: 7.30 a.m. to 12 p.m.;Tue: 9.30 a.m. to 6 p.m.;Thu: 7.30 a.m. to 4 p.m.","street":"Hauptstraße  85","image":"http://www.stadt-koeln.de/mediaasset/bilder/freizeit/toiletten/33.jpeg","opening":"Mo, Mi, Fr: 7.30 - 12.00 Uhr;Di: 9.30 - 18.00 Uhr;Do: 7.30 - 16.00 Uhr","district":"Rodenkirchen","stop":"","description":"Nutzungsgebühr: Kostenlos; Startdaten","city":"Köln","infrastructure":"1,6,11","area":"Rodenkirchen","name":"Bezirksrathaus Rodenkirchen"},"geometry":{"type":"Point","coordinates":[6.996971,50.892204]},"id":"1005344"},{"type":"Feature","properties":{"descriptiongb":"Usage Fee: free of charge; ","cardnamegb":"Cemetery Worringen","zipcode":50769,"type":"Friedhofstoilette","start":"","phone":"Startdaten","cardname":"Friedhof Worringen","openinggb":"During opening times of the cemetary.","street":"Hackhauser Weg 22","image":"http://www.stadt-koeln.de/mediaasset/bilder/freizeit/toiletten/70.jpeg","opening":"Während der Öffnungszeiten des Friedhofs.","district":"Chorweiler","stop":"","description":"Nutzungsgebühr: Kostenlos; ","city":"Köln","infrastructure":"8,11","area":"Worringen","name":"Friedhof Worringen"},"geometry":{"type":"Point","coordinates":[6.860061,51.062656]},"id":"1005168"},{"type":"Feature","properties":{"descriptiongb":"Usage Fee: free of charge; ","cardnamegb":"Cemetery Schönrather Hof","zipcode":51063,"type":"Friedhofstoilette","start":"","phone":"friedhofstoiletten@stadt-koeln.de","cardname":"Friedhof Schönrather Hof (Mülheim)","openinggb":"During opening times of the cemetary.","street":"Haslacher Weg 23 d","image":"http://www.stadt-koeln.de/mediaasset/bilder/freizeit/toiletten/97.jpeg","opening":"Während der Öffnungszeiten des Friedhofs.","district":"Mülheim","stop":"","description":"Nutzungsgebühr: Kostenlos; ","city":"Köln","infrastructure":"8,11","area":"Mülheim","name":"Friedhof Schönrather Hof (Mülheim)"},"geometry":{"type":"Point","coordinates":[7.005165,50.984886]},"id":"1005169"},{"type":"Feature","properties":{"descriptiongb":"Usage Fee: free of charge; ","cardnamegb":"Früh em Veedel","zipcode":50670,"type":"HappyToilet Köln","start":"","phone":"Startdaten","cardname":"Früh em Veedel","openinggb":"Tue - Thu: 11.00 a.m. to Midnight; Fri and Sat: 11.00 a.m. to 1.00 a.m.; Mon and Sun: closed","street":"Chlodwigplatz 28","image":"","opening":"Di - Do: 11.00 - 24.00 Uhr;Fr und Sa: 11.00 - 1.00 Uhr;Mo und So: geschlossen","district":"Innenstadt","stop":"","description":"Nutzungsgebühr: Kostenlos; ","city":"Köln","infrastructure":"7,11","area":"Altstadt Süd","name":"Früh em Veedel"},"geometry":{"type":"Point","coordinates":[6.959809,50.92207]},"id":"1005171"},{"type":"Feature","properties":{"descriptiongb":"Usage Fee: free of charge; ","cardnamegb":"Brauhaus Früh am Dom","zipcode":50667,"type":"HappyToilet Köln","start":"","phone":"Startdaten","cardname":"Brauhaus Früh am Dom","openinggb":"Mon - Sun: 8.00 a.m. to Midnight","street":"Am Hof 12-18","image":"","opening":"Mo - Fr: 8.00 - 24.00 Uhr","district":"Innenstadt","stop":"","description":"Nutzungsgebühr: Kostenlos; ","city":"Köln","infrastructure":"7,11","area":"Altstadt Süd","name":"Brauhaus Früh am Dom"},"geometry":{"type":"Point","coordinates":[6.956963,50.940175]},"id":"1005366"},{"type":"Feature","properties":{"descriptiongb":"Usage Fee: free of charge; ","cardnamegb":"Leone im Rheinauhafen","zipcode":50678,"type":"HappyToilet Köln","start":"","phone":"Startdaten","cardname":"Leone im Rheinauhafen","openinggb":"Mon - Fri: from 8.00 a.a.;Sat, Sun and Public holidays: from 10.00 a.a.","street":"Kranhaus Süd, Im Zollhafen 24","image":"","opening":"Mo - Fr: ab 8.00 Uhr;Sa, So und Feiertags: ab 10.00 Uhr","district":"Innenstadt","stop":"","description":"Nutzungsgebühr: Kostenlos; ","city":"Köln","infrastructure":"7,11","area":"Altstadt Süd","name":"Leone im Rheinauhafen"},"geometry":{"type":"Point","coordinates":[6.966425,50.925761]},"id":"1005367"},{"type":"Feature","properties":{"descriptiongb":"Usage Fee: €1.00; ","cardnamegb":"Dom Hotel am Römerbrunnen","zipcode":50677,"type":"HappyToilet Köln","start":"","phone":"Startdaten","cardname":"Dom Hotel am Römerbrunnen","openinggb":"Daily from 7.00 a.m. to 11.00 p.m.","street":"Komödienstr. 54","image":"","opening":"Täglich: 7.00 - 23.00 Uhr","district":"Innenstadt","stop":"","description":"Nutzungsgebühr: 1,00 €; ","city":"Köln","infrastructure":"4,7,9","area":"Altstadt Nord","name":"Dom Hotel am Römerbrunnen"},"geometry":{"type":"Point","coordinates":[6.953801,50.94154]},"id":"1005368"},{"type":"Feature","properties":{"descriptiongb":"Usage Fee: € 0.50; ","cardnamegb":"Gloria","zipcode":50667,"type":"HappyToilet Köln","start":"","phone":"Startdaten","cardname":"Gloria","openinggb":"Mon - Sat: 10.00 a.m. to 7.00 p.m.","street":"Apostelnstr. 11","image":"http://www.awbkoeln.de/typo3temp/_processed_/csm_HTK_Gloria_3f1cbe4928.jpg","opening":"Mo - Sa: 10.00 - 19:00 Uhr","district":"Innenstadt","stop":"","description":"Nutzungsgebühr: 0,50 €; ","city":"Köln","infrastructure":"4,7,9","area":"Altstadt Nord","name":"Gloria"},"geometry":{"type":"Point","coordinates":[6.944943,50.937579]},"id":"1005369"},{"type":"Feature","properties":{"descriptiongb":"Usage Fee: free of charge; ","cardnamegb":"Chorweiler citizen registration office","zipcode":50765,"type":"Toilette in öffentlichen Einrichtungen","start":"","phone":"Startdaten","cardname":"Stadthaus Chorweiler","openinggb":"Mon, Tue, Thu: 8 a.m. to 4 p.m.;Wed, Fri: 8 a.m. to 12 p.m.","street":"Athener Ring 4","image":"http://www.stadt-koeln.de/mediaasset/bilder/freizeit/toiletten/68.jpeg","opening":"Mo, Di, Do: 8.00 - 16.00 Uhr;Mi, Fr: 8.00 - 12.00 Uhr","district":"Chorweiler","stop":"","description":"Nutzungsgebühr: Kostenlos; ","city":"Köln","infrastructure":"1,6,11","area":"Chorweiler","name":"Stadthaus Chorweiler"},"geometry":{"type":"Point","coordinates":[6.892948,51.02174]},"id":"1005166"},{"type":"Feature","properties":{"descriptiongb":"Usage Fee: free of charge;Toilet is located in the old part of the university.; ","cardnamegb":"Cologne University of Applied Sciences (Old building)","zipcode":50679,"type":"Toilette in öffentlichen Einrichtungen","start":"","phone":"Startdaten","cardname":"Altbau der Fachhochschule Köln","openinggb":"Mon - Fri: 7 a.m. to 11 p.m.;Sat: 8 a.m to 2 p.m.","street":"Betzdorfer Str. 2","image":"http://www.stadt-koeln.de/mediaasset/bilder/freizeit/toiletten/237.jpeg","opening":"Mo - Fr: 07.00 - 23.00 Uhr;Sa: 8.00 - 14.00 Uhr","district":"Innenstadt","stop":"","description":"Nutzungsgebühr: Kostenlos;Toilette befindet sich im Altbau der Fachhochschule.; ","city":"Köln","infrastructure":"1,6,11","area":"Deutz","name":"Fachhochschule Köln"},"geometry":{"type":"Point","coordinates":[50.935497,50.935497]},"id":"1005155"},{"type":"Feature","properties":{"descriptiongb":"Usage Fee: free of charge;Toilet is located in the main building of the university.; ","cardnamegb":"Cologne University of Applied Sciences ","zipcode":50679,"type":"Toilette in öffentlichen Einrichtungen","start":"","phone":"Startdaten","cardname":"Fachhochschule Köln","openinggb":"Mon - Fri: 7 a.m. to 11 p.m.;Sat: 8 a.m to 2 p.m.","street":"Betzdorfer Str. 2","image":"http://www.stadt-koeln.de/mediaasset/bilder/freizeit/toiletten/238-1.jpeg","opening":"Mo - Fr: 07.00 - 23.00 Uhr;Sa: 8.00 - 14.00 Uhr","district":"Innenstadt","stop":"","description":"Nutzungsgebühr: Kostenlos;Die Toilette befindet sich im Hauptgebäude der Fachhochschule.; ","city":"Köln","infrastructure":"1,6,11","area":"Deutz","name":"Fachhochschule Köln"},"geometry":{"type":"Point","coordinates":[6.987585,50.934669]},"id":"1005372"},{"type":"Feature","properties":{"descriptiongb":"Usage Fee: free of charge; ","cardnamegb":"Townhouse Deutz","zipcode":50679,"type":"Toilette in öffentlichen Einrichtungen","start":"","phone":"Startdaten","cardname":"Stadthaus Deutz","openinggb":"Mon, Wed, Thu: 8 a.m. to 4 p.m.;Tue: 8 a.m. to 6 p.m.;Fri: 8 a.m. to 12.p.m.","street":"Willy-Brandt-Platz 2","image":"","opening":"Mo, Mi, Do: 8.00 - 16.00 Uhr;Di: 8.00 - 18.00 Uhr;Fr: 8.00 - 12.00 Uhr","district":"Innenstadt","stop":"","description":"Nutzungsgebühr: Kostenlos; ","city":"Köln","infrastructure":"1,6,11","area":"Deutz","name":"Stadthaus Deutz"},"geometry":{"type":"Point","coordinates":[6.981931,50.939142]},"id":"1005373"},{"type":"Feature","properties":{"descriptiongb":"Usage Fee: €0.50;Toilet is situated in the underground of the station.; ","cardnamegb":"Underground station Ebertplatz (underground)","zipcode":50668,"type":"City-Toilette","start":"","phone":"Startdaten","cardname":"U-Bahn Station Ebertplatz (unterirdisch)","openinggb":"Mon to Fri: 8 a.m. to 6 p.m.;Sat: 10 a.m. to 8 p.m.;Sun and public holidays: 10 a.m. to 6 p.m.;Christmas Eve (24.12.): 8 a.m. to 4 p.m.","street":"Ebertplatz 23","image":"http://www.stadt-koeln.de/mediaasset/bilder/freizeit/toiletten/24-1.jpeg","opening":"Mo-Fr: 08.00 - 18.00 Uhr;Sa: 10.00 - 20.00 Uhr;So + Feiertag: 10.00 - 18.00 Uhr;Heiligabend (24.12): 8.00 - 16.00 Uhr","district":"Innenstadt","stop":"","description":"Nutzungsgebühr: 0,50 €;Die Toilette befindet sich in der U-Bahn Station Ebertplatz unterirdisch.; ","city":"Köln","infrastructure":"1,5,9","area":"Neustadt Nord","name":"U-Bahn Station Ebertplatz (unterirdisch)"},"geometry":{"type":"Point","coordinates":[6.958569,50.950832]},"id":"1005159"},{"type":"Feature","properties":{"descriptiongb":"Usage Fee: € 0.50; The toilet is situated in the underground of the station.; ","cardnamegb":"Underground station Venloer/Gürtel","zipcode":50825,"type":"City-Toilette","start":"","phone":"Startdaten","cardname":"U-Bahn Station Venloer/Gürtel","openinggb":"Mon - Fri: 8 a.m. to 9 p.m.;Sat: 10 a.m. to 8 p.m.;Sun and public holidays: 10.00 a.m. to 6 p.m.;\nChristmas Eve (24.12.): 8 a.m. to 4 p.m.","street":"Venloer Str. 350","image":"http://www.stadt-koeln.de/mediaasset/bilder/freizeit/toiletten/219.jpeg","opening":"Mo - Fr: 8.00 - 21.00 Uhr;Sa: 10.00 - 20.00 Uhr;So und Feiertag: 10.00 - 18.00 Uhr;Heiligabend (24.12): 8.00 - 16.00 Uhr","district":"Ehrenfeld","stop":"","description":"Nutzungsgebühr: 0,50 €; Die Toiletten befindet sich in der U-Bahn-Haltestelle unterirdisch.; ","city":"Köln","infrastructure":"5,11","area":"Ehrenfeld","name":"U-Bahn Station Venloer Str./Gürtel"},"geometry":{"type":"Point","coordinates":[6.916653,50.95015]},"id":"1005163"}]}